stop_id,stop_code,stop_name,stop_lat,stop_lon,stop_url,zone_id,location_type,parent_station
1,"826058","Military E & E 5th St",38.051094,-122.147163,"http://soltrans.connexionz.net/RTT/Public/Transit.aspx?page=text&plt=1",1,,
2,"824066","Redwood Pkwy & Cabernet Dr",38.131569,-122.199886,"http://soltrans.connexionz.net/RTT/Public/Transit.aspx?page=text&plt=2",1,,
3,"826059","Military W & W 3rd St",38.055878,-122.160057,"http://soltrans.connexionz.net/RTT/Public/Transit.aspx?page=text&plt=3",1,,
4,"826060","Columbus Pkwy & Rose Dr",38.081169,-122.191963,"http://soltrans.connexionz.net/RTT/Public/Transit.aspx?page=text&plt=4",1,,
7,"824063","Columbus Pkwy & Tennessee St",38.108990,-122.203026,"http://soltrans.connexionz.net/RTT/Public/Transit.aspx?page=text&plt=7",1,,
8,"824064","Redwood Pkwy & Eagle Ridge Dr",38.126226,-122.203649,"http://soltrans.connexionz.net/RTT/Public/Transit.aspx?page=text&plt=8",1,,
9,"824065","Redwood Pkwy & Penny Ln",38.129231,-122.203139,"http://soltrans.connexionz.net/RTT/Public/Transit.aspx?page=text&plt=9",1,,
10,"824053","Columbus Pkwy & Tennessee St",38.108444,-122.203331,"http://soltrans.connexionz.net/RTT/Public/Transit.aspx?page=text&plt=10",1,,
11,"824054","Columbus Pkwy & Springs Rd",38.105453,-122.203629,"http://soltrans.connexionz.net/RTT/Public/Transit.aspx?page=text&plt=11",1,,
14,"826061","Military W & W 3rd St",38.055450,-122.159348,"http://soltrans.connexionz.net/RTT/Public/Transit.aspx?page=text&plt=14",1,,
16,"828005","Oakwood Ave & Westwood St",38.104459,-122.217734,"http://soltrans.connexionz.net/RTT/Public/Transit.aspx?page=text&plt=16",1,,
17,"828006","Tennessee St & Oakwood Ave",38.109714,-122.218229,"http://soltrans.connexionz.net/RTT/Public/Transit.aspx?page=text&plt=17",1,,
27,"823146","Valle Vista Ave & Couch St (Post Office)",38.119878,-122.251001,"http://soltrans.connexionz.net/RTT/Public/Transit.aspx?page=text&plt=27",1,,
28,"823145","Valle Vista Ave & Napa St (Post Office)",38.119734,-122.251139,"http://soltrans.connexionz.net/RTT/Public/Transit.aspx?page=text&plt=28",1,,
33,"824068","Admiral Callaghan Ln & Henry St",38.111706,-122.229058,"http://soltrans.connexionz.net/RTT/Public/Transit.aspx?page=text&plt=33",1,,
37,"824027","Plaza Dr & Admiral Callaghan Ln",38.133780,-122.217582,"http://soltrans.connexionz.net/RTT/Public/Transit.aspx?page=text&plt=37",1,,
38,"828004","Rollingwood Dr & Cottonwood Dr",38.102497,-122.209335,"http://soltrans.connexionz.net/RTT/Public/Transit.aspx?page=text&plt=38",1,,
39,"828007","Georgia St & Delwood St",38.100147,-122.201425,"http://soltrans.connexionz.net/RTT/Public/Transit.aspx?page=text&plt=39",1,,
40,"821076","Florida St & Napa St",38.105030,-122.251317,"http://soltrans.connexionz.net/RTT/Public/Transit.aspx?page=text&plt=40",1,,
41,"821127","Sonoma Blvd & Capitol St",38.102829,-122.255031,"http://soltrans.connexionz.net/RTT/Public/Transit.aspx?page=text&plt=41",1,,
43,"823025","Sacramento St & Valle Vista Ave",38.118080,-122.258369,"http://soltrans.connexionz.net/RTT/Public/Transit.aspx?page=text&plt=43",1,,
45,"822098","Rolllingwood Rd & Baywood Dr",38.098110,-122.209271,"http://soltrans.connexionz.net/RTT/Public/Transit.aspx?page=text&plt=45",1,,
46,"823147","Tennessee St & Shasta St",38.109620,-122.234519,"http://soltrans.connexionz.net/RTT/Public/Transit.aspx?page=text&plt=46",1,,
48,"822006","Georgia St & Hogan Middle School",38.100201,-122.212837,"http://soltrans.connexionz.net/RTT/Public/Transit.aspx?page=text&plt=48",1,,
54,"823000","Sonoma Blvd & California St",38.120782,-122.254851,"http://soltrans.connexionz.net/RTT/Public/Transit.aspx?page=text&plt=54",1,,
55,"825044","Jack London Dr & Doreen Ct",38.144711,-122.263324,"http://soltrans.connexionz.net/RTT/Public/Transit.aspx?page=text&plt=55",1,,
56,"825043","Mini Dr & Sonoma Blvd",38.153770,-122.254157,"http://soltrans.connexionz.net/RTT/Public/Transit.aspx?page=text&plt=56",1,,
57,"825045","Sonoma Blvd & Hwy 37",38.135985,-122.256314,"http://soltrans.connexionz.net/RTT/Public/Transit.aspx?page=text&plt=57",1,,
58,"825046","Sonoma Blvd & Yolano Dr",38.131976,-122.256193,"http://soltrans.connexionz.net/RTT/Public/Transit.aspx?page=text&plt=58",1,,
59,"823017","Valle Vista Ave & Sonoma Blvd",38.119771,-122.253988,"http://soltrans.connexionz.net/RTT/Public/Transit.aspx?page=text&plt=59",1,,
61,"825047","Mini Dr & Princeton Ave",38.152850,-122.248683,"http://soltrans.connexionz.net/RTT/Public/Transit.aspx?page=text&plt=61",1,,
63,"822101","Fulton Ave & Magazine St",38.082817,-122.223220,"http://soltrans.connexionz.net/RTT/Public/Transit.aspx?page=text&plt=63",1,,
64,"821019","Sandy Beach Rd & Sonoma Blvd",38.078093,-122.235482,"http://soltrans.connexionz.net/RTT/Public/Transit.aspx?page=text&plt=64",1,,
65,"824002","Turner Pkwy & Admiral Callaghan Ln",38.130586,-122.224484,"http://soltrans.connexionz.net/RTT/Public/Transit.aspx?page=text&plt=65",1,,
66,"824028","Admiral Callaghan Ln & Auto Club Way",38.135381,-122.216216,"http://soltrans.connexionz.net/RTT/Public/Transit.aspx?page=text&plt=66",1,,
67,"824033","Columbus Pkwy & North Ascot Pkwy",38.136765,-122.206969,"http://soltrans.connexionz.net/RTT/Public/Transit.aspx?page=text&plt=67",1,,
69,"824060","Redwood Pkwy & Jesse Bethel High School",38.122848,-122.206103,"http://soltrans.connexionz.net/RTT/Public/Transit.aspx?page=text&plt=69",1,,
71,"824003","Turner Pkwy & Plaza Dr",38.131114,-122.216478,"http://soltrans.connexionz.net/RTT/Public/Transit.aspx?page=text&plt=71",1,,
72,"824004","Turner Pkwy & Admiral Callaghan Ln",38.130782,-122.221199,"http://soltrans.connexionz.net/RTT/Public/Transit.aspx?page=text&plt=72",1,,
73,"821082","Maine St & Solano Ave",38.098882,-122.244393,"http://soltrans.connexionz.net/RTT/Public/Transit.aspx?page=text&plt=73",1,,
74,"829016","Suisun Valley Rd & Kaiser Dr (SCC)",38.229228,-122.128787,"http://soltrans.connexionz.net/RTT/Public/Transit.aspx?page=text&plt=74",2,,
75,"822015","Glen Cove Pkwy & Robles Way",38.084369,-122.211681,"http://soltrans.connexionz.net/RTT/Public/Transit.aspx?page=text&plt=75",1,,
76,"823074","Sonoma Blvd & Sereno Dr",38.128207,-122.255460,"http://soltrans.connexionz.net/RTT/Public/Transit.aspx?page=text&plt=76",1,,
77,"823075","Sonoma Blvd & Sereno Dr (Smart & Final)",38.128110,-122.255877,"http://soltrans.connexionz.net/RTT/Public/Transit.aspx?page=text&plt=77",1,,
78,"822100","Rollingwood Rd & Benicia Rd",38.089714,-122.208366,"http://soltrans.connexionz.net/RTT/Public/Transit.aspx?page=text&plt=78",1,,
79,"825032","Janice St & McGrue Ave",38.148566,-122.234200,"http://soltrans.connexionz.net/RTT/Public/Transit.aspx?page=text&plt=79",1,,
80,"824019","Admiral Callaghan Ln & Tennessee St",38.110245,-122.228349,"http://soltrans.connexionz.net/RTT/Public/Transit.aspx?page=text&plt=80",1,,
81,"821006","Alameda St & Florida St",38.105287,-122.248082,"http://soltrans.connexionz.net/RTT/Public/Transit.aspx?page=text&plt=81",1,,
82,"821009","Alameda St & Ohio St",38.106544,-122.248557,"http://soltrans.connexionz.net/RTT/Public/Transit.aspx?page=text&plt=82",1,,
83,"821005","Alameda St & Virginia St",38.102261,-122.248155,"http://soltrans.connexionz.net/RTT/Public/Transit.aspx?page=text&plt=83",1,,
84,"821010","Alameda St & Virginia St",38.101734,-122.248374,"http://soltrans.connexionz.net/RTT/Public/Transit.aspx?page=text&plt=84",1,,
87,"822051","Ascot Pkwy & Georgia St",38.106058,-122.188593,"http://soltrans.connexionz.net/RTT/Public/Transit.aspx?page=text&plt=87",1,,
88,"822050","Ascot Pkwy & Hawkins St",38.107763,-122.190200,"http://soltrans.connexionz.net/RTT/Public/Transit.aspx?page=text&plt=88",1,,
89,"822048","Ascot Pkwy & Hilary Way",38.110462,-122.196739,"http://soltrans.connexionz.net/RTT/Public/Transit.aspx?page=text&plt=89",1,,
90,"824011","Ascot Pkwy & Locust Dr",38.114403,-122.200908,"http://soltrans.connexionz.net/RTT/Public/Transit.aspx?page=text&plt=90",1,,
92,"824009","Ascot Pkwy & Wardlaw Park East",38.118704,-122.206239,"http://soltrans.connexionz.net/RTT/Public/Transit.aspx?page=text&plt=92",1,,
93,"822049","Ascot Pkwy & Southport Way",38.108458,-122.194297,"http://soltrans.connexionz.net/RTT/Public/Transit.aspx?page=text&plt=93",1,,
94,"824022","Ascot Pkwy & Sunrise Way",38.118153,-122.202665,"http://soltrans.connexionz.net/RTT/Public/Transit.aspx?page=text&plt=94",1,,
95,"824010","Ascot Pkwy & Sunrise Way",38.117487,-122.202430,"http://soltrans.connexionz.net/RTT/Public/Transit.aspx?page=text&plt=95",1,,
97,"822087","Avian Dr & Tennessee St",38.108730,-122.204554,"http://soltrans.connexionz.net/RTT/Public/Transit.aspx?page=text&plt=97",1,,
98,"822086","Avian Dr & Tennessee St",38.108766,-122.204344,"http://soltrans.connexionz.net/RTT/Public/Transit.aspx?page=text&plt=98",1,,
99,"821084","Benicia Rd & Beach St",38.096498,-122.237966,"http://soltrans.connexionz.net/RTT/Public/Transit.aspx?page=text&plt=99",1,,
100,"821086","Benicia Rd & Carquinez St",38.095378,-122.233226,"http://soltrans.connexionz.net/RTT/Public/Transit.aspx?page=text&plt=100",1,,
101,"822070","Benicia Rd & Cedar St",38.093673,-122.225462,"http://soltrans.connexionz.net/RTT/Public/Transit.aspx?page=text&plt=101",1,,
102,"822072","Benicia Rd & Home Acres Ave",38.092203,-122.219101,"http://soltrans.connexionz.net/RTT/Public/Transit.aspx?page=text&plt=102",1,,
103,"822071","Benicia Rd & Maple Ave",38.093025,-122.222624,"http://soltrans.connexionz.net/RTT/Public/Transit.aspx?page=text&plt=103",1,,
104,"821083","Benicia Rd & Solano Ave",38.097902,-122.242542,"http://soltrans.connexionz.net/RTT/Public/Transit.aspx?page=text&plt=104",1,,
105,"822074","Benicia Rd & Rollingwood Dr",38.089641,-122.209777,"http://soltrans.connexionz.net/RTT/Public/Transit.aspx?page=text&plt=105",1,,
106,"821085","Benicia Rd & Starr Ave",38.095846,-122.235263,"http://soltrans.connexionz.net/RTT/Public/Transit.aspx?page=text&plt=106",1,,
107,"822073","Benicia Rd & Taylor Ave",38.091518,-122.216093,"http://soltrans.connexionz.net/RTT/Public/Transit.aspx?page=text&plt=107",1,,
108,"823028","Broadway St & 1850 Garage",38.134053,-122.252215,"http://soltrans.connexionz.net/RTT/Public/Transit.aspx?page=text&plt=108",1,,
109,"823012","Broadway St & Ash St",38.134317,-122.252452,"http://soltrans.connexionz.net/RTT/Public/Transit.aspx?page=text&plt=109",1,,
111,"823013","Broadway St & Garibaldi Dr (Park Place)",38.132436,-122.252466,"http://soltrans.connexionz.net/RTT/Public/Transit.aspx?page=text&plt=111",1,,
112,"823027","Broadway St & Garibaldi Dr (Park Place)",38.131965,-122.252260,"http://soltrans.connexionz.net/RTT/Public/Transit.aspx?page=text&plt=112",1,,
115,"821007","Broadway St & Louisiana St",38.107785,-122.248568,"http://soltrans.connexionz.net/RTT/Public/Transit.aspx?page=text&plt=115",1,,
119,"823003","Broadway St & Vallejo High School",38.114872,-122.248415,"http://soltrans.connexionz.net/RTT/Public/Transit.aspx?page=text&plt=119",1,,
120,"823020","Broadway St & Nebraska St",38.114195,-122.248628,"http://soltrans.connexionz.net/RTT/Public/Transit.aspx?page=text&plt=120",1,,
121,"823004","Broadway St & Oregon St",38.118531,-122.248439,"http://soltrans.connexionz.net/RTT/Public/Transit.aspx?page=text&plt=121",1,,
122,"823019","Broadway St & Oregon St",38.117979,-122.248596,"http://soltrans.connexionz.net/RTT/Public/Transit.aspx?page=text&plt=122",1,,
124,"823022","Broadway St & Tennessee St",38.110055,-122.248705,"http://soltrans.connexionz.net/RTT/Public/Transit.aspx?page=text&plt=124",1,,
125,"823001","Broadway St & Tennessee St",38.110357,-122.248508,"http://soltrans.connexionz.net/RTT/Public/Transit.aspx?page=text&plt=125",1,,
126,"821063","Butte St & Florida St",38.104548,-122.263328,"http://soltrans.connexionz.net/RTT/Public/Transit.aspx?page=text&plt=126",1,,
132,"826021","Chelsea Hills Dr & Gill Way",38.071565,-122.159991,"http://soltrans.connexionz.net/RTT/Public/Transit.aspx?page=text&plt=132",1,,
134,"825029","Christopher Way & Lillean Way",38.150784,-122.234954,"http://soltrans.connexionz.net/RTT/Public/Transit.aspx?page=text&plt=134",1,,
135,"824020","Columbus Pkwy & Ascot Pkwy",38.111785,-122.198932,"http://soltrans.connexionz.net/RTT/Public/Transit.aspx?page=text&plt=135",1,,
136,"824032","Columbus Pkwy & Solano College Entrance",38.135237,-122.201879,"http://soltrans.connexionz.net/RTT/Public/Transit.aspx?page=text&plt=136",1,,
138,"825028","Corcoran Ave & Belfast Dr",38.153827,-122.235470,"http://soltrans.connexionz.net/RTT/Public/Transit.aspx?page=text&plt=138",1,,
139,"825026","Corcoran Ave & Solano Middle School",38.154463,-122.239936,"http://soltrans.connexionz.net/RTT/Public/Transit.aspx?page=text&plt=139",1,,
141,"825025","Corcoran Ave & Rainier Ave",38.151107,-122.244735,"http://soltrans.connexionz.net/RTT/Public/Transit.aspx?page=text&plt=141",1,,
146,"821017","Curtola Park & Ride",38.093290,-122.237619,"http://soltrans.connexionz.net/RTT/Public/Transit.aspx?page=text&plt=146",1,,
147,"821014","Curtola Pkwy & Napa St",38.096991,-122.252719,"http://soltrans.connexionz.net/RTT/Public/Transit.aspx?page=text&plt=147",1,,
148,"821101","Curtola Pkwy & Napa St",38.097178,-122.251976,"http://soltrans.connexionz.net/RTT/Public/Transit.aspx?page=text&plt=148",1,,
149,"823095","Daniels Ave & B St",38.118877,-122.270804,"http://soltrans.connexionz.net/RTT/Public/Transit.aspx?page=text&plt=149",1,,
150,"823068","Daniels Ave & B St",38.118925,-122.270644,"http://soltrans.connexionz.net/RTT/Public/Transit.aspx?page=text&plt=150",1,,
151,"823069","Daniels Ave & Rodgers St",38.122037,-122.267796,"http://soltrans.connexionz.net/RTT/Public/Transit.aspx?page=text&plt=151",1,,
152,"823094","Daniels Ave & Rodgers St",38.121857,-122.268568,"http://soltrans.connexionz.net/RTT/Public/Transit.aspx?page=text&plt=152",1,,
153,"826024","Drolette Way & Mary Farmar Elementary",38.062169,-122.169616,"http://soltrans.connexionz.net/RTT/Public/Transit.aspx?page=text&plt=153",1,,
154,"826033","E 2nd St & Riverhill Dr",38.055887,-122.151486,"http://soltrans.connexionz.net/RTT/Public/Transit.aspx?page=text&plt=154",1,,
155,"826028","East 3rd St & East L St",38.052240,-122.151406,"http://soltrans.connexionz.net/RTT/Public/Transit.aspx?page=text&plt=155",1,,
156,"826027","E 3rd St & Robert Semple Elementary",38.058124,-122.147165,"http://soltrans.connexionz.net/RTT/Public/Transit.aspx?page=text&plt=156",1,,
157,"826006","East 5th St & East N St",38.052063,-122.146172,"http://soltrans.connexionz.net/RTT/Public/Transit.aspx?page=text&plt=157",1,,
158,"826007","East 5th St & East N St",38.052000,-122.145977,"http://soltrans.connexionz.net/RTT/Public/Transit.aspx?page=text&plt=158",1,,
159,"826037","E 5th St & Viewmont St",38.055158,-122.143838,"http://soltrans.connexionz.net/RTT/Public/Transit.aspx?page=text&plt=159",1,,
160,"825017","Elliott Dr & Dillon Dr",38.150288,-122.257604,"http://soltrans.connexionz.net/RTT/Public/Transit.aspx?page=text&plt=160",1,,
162,"825015","Elliott Dr & Meadows Dr",38.147627,-122.257785,"http://soltrans.connexionz.net/RTT/Public/Transit.aspx?page=text&plt=162",1,,
163,"823108","Six Flags Discovery Kingdom",38.136807,-122.230057,"http://soltrans.connexionz.net/RTT/Public/Transit.aspx?page=text&plt=163",1,,
164,"823107","Six Flags Discovery Kingdom",38.136889,-122.229724,"http://soltrans.connexionz.net/RTT/Public/Transit.aspx?page=text&plt=164",1,,
165,"823114","Fairgrounds Dr & Sereno Dr",38.128963,-122.229428,"http://soltrans.connexionz.net/RTT/Public/Transit.aspx?page=text&plt=165",1,,
166,"823113","Fairgrounds Dr & Sereno Dr",38.128830,-122.229269,"http://soltrans.connexionz.net/RTT/Public/Transit.aspx?page=text&plt=166",1,,
167,"824018","Fleming Ave & Admiral Callaghan Ln",38.117301,-122.229091,"http://soltrans.connexionz.net/RTT/Public/Transit.aspx?page=text&plt=167",1,,
168,"824017","Fleming Ave & Skyway Dr",38.115541,-122.224432,"http://soltrans.connexionz.net/RTT/Public/Transit.aspx?page=text&plt=168",1,,
169,"821075","Florida St & Alameda St",38.105008,-122.248549,"http://soltrans.connexionz.net/RTT/Public/Transit.aspx?page=text&plt=169",1,,
170,"821074","Florida St & Amador St (Douglas Ctr)",38.104970,-122.244043,"http://soltrans.connexionz.net/RTT/Public/Transit.aspx?page=text&plt=170",1,,
171,"821095","Florida St & Calaveras St",38.104717,-122.236181,"http://soltrans.connexionz.net/RTT/Public/Transit.aspx?page=text&plt=171",1,,
173,"821092","Florida St & Napa St",38.104957,-122.252043,"http://soltrans.connexionz.net/RTT/Public/Transit.aspx?page=text&plt=173",1,,
174,"821061","Florida St & Santa Clara St (St Vincent)",38.105174,-122.259574,"http://soltrans.connexionz.net/RTT/Public/Transit.aspx?page=text&plt=174",1,,
175,"821096","Florida St & Solano Ave",38.104656,-122.234023,"http://soltrans.connexionz.net/RTT/Public/Transit.aspx?page=text&plt=175",1,,
176,"821071","Florida St & Solano Ave",38.104816,-122.233738,"http://soltrans.connexionz.net/RTT/Public/Transit.aspx?page=text&plt=176",1,,
177,"821077","Florida St & Sonoma Blvd",38.105108,-122.254016,"http://soltrans.connexionz.net/RTT/Public/Transit.aspx?page=text&plt=177",1,,
178,"821072","Florida St & Tuolumne St",38.104850,-122.237981,"http://soltrans.connexionz.net/RTT/Public/Transit.aspx?page=text&plt=178",1,,
179,"821094","Florida St & Tuolumne St",38.104782,-122.238953,"http://soltrans.connexionz.net/RTT/Public/Transit.aspx?page=text&plt=179",1,,
181,"822083","Fulton Ave & Old Glen Cove Rd",38.082313,-122.213978,"http://soltrans.connexionz.net/RTT/Public/Transit.aspx?page=text&plt=181",1,,
182,"822084","Fulton Ave & Ladera Dr",38.084103,-122.220371,"http://soltrans.connexionz.net/RTT/Public/Transit.aspx?page=text&plt=182",1,,
183,"825036","Gateway Dr & Fairgrounds Dr",38.144861,-122.234636,"http://soltrans.connexionz.net/RTT/Public/Transit.aspx?page=text&plt=183",1,,
184,"825035","Gateway Dr & Sage St",38.145187,-122.229290,"http://soltrans.connexionz.net/RTT/Public/Transit.aspx?page=text&plt=184",1,,
187,"821051","Georgia St & Alameda St",38.101077,-122.248116,"http://soltrans.connexionz.net/RTT/Public/Transit.aspx?page=text&plt=187",1,,
188,"821054","Georgia St & Amador St (Douglas Ctr)",38.100845,-122.243563,"http://soltrans.connexionz.net/RTT/Public/Transit.aspx?page=text&plt=188",1,,
189,"821049","Georgia St & Amador St (Douglas Ctr)",38.101016,-122.243708,"http://soltrans.connexionz.net/RTT/Public/Transit.aspx?page=text&plt=189",1,,
190,"821048","Georgia St & Contra Costa St",38.100991,-122.241389,"http://soltrans.connexionz.net/RTT/Public/Transit.aspx?page=text&plt=190",1,,
191,"821041","Georgia St & Contra Costa St",38.100809,-122.241250,"http://soltrans.connexionz.net/RTT/Public/Transit.aspx?page=text&plt=191",1,,
192,"822041","Georgia St & Corkwood St",38.100216,-122.206392,"http://soltrans.connexionz.net/RTT/Public/Transit.aspx?page=text&plt=192",1,,
193,"821011","Georgia St & El Dorado St",38.101110,-122.250286,"http://soltrans.connexionz.net/RTT/Public/Transit.aspx?page=text&plt=193",1,,
194,"821004","Georgia St & El Dorado St",38.100929,-122.249676,"http://soltrans.connexionz.net/RTT/Public/Transit.aspx?page=text&plt=194",1,,
195,"822042","Georgia St & Heartwood Ave",38.100246,-122.211765,"http://soltrans.connexionz.net/RTT/Public/Transit.aspx?page=text&plt=195",1,,
196,"821053","Georgia St & Monterey St",38.100886,-122.246328,"http://soltrans.connexionz.net/RTT/Public/Transit.aspx?page=text&plt=196",1,,
197,"821050","Georgia St & Monterey St",38.101056,-122.246457,"http://soltrans.connexionz.net/RTT/Public/Transit.aspx?page=text&plt=197",1,,
200,"822053","Georgia St & Norfolk Ct",38.101816,-122.197281,"http://soltrans.connexionz.net/RTT/Public/Transit.aspx?page=text&plt=200",1,,
201,"822005","Georgia St & Rosewood Ave",38.100298,-122.215901,"http://soltrans.connexionz.net/RTT/Public/Transit.aspx?page=text&plt=201",1,,
202,"821002","Georgia St & Sonoma Blvd",38.100995,-122.254064,"http://soltrans.connexionz.net/RTT/Public/Transit.aspx?page=text&plt=202",1,,
203,"822052","Georgia St & Southport Way",38.102606,-122.193881,"http://soltrans.connexionz.net/RTT/Public/Transit.aspx?page=text&plt=203",1,,
204,"822020","Glen Cove Pkwy & Antigua Way",38.070973,-122.210362,"http://soltrans.connexionz.net/RTT/Public/Transit.aspx?page=text&plt=204",1,,
205,"822025","Glen Cove Pkwy & Bayside Ter",38.069663,-122.221751,"http://soltrans.connexionz.net/RTT/Public/Transit.aspx?page=text&plt=205",1,,
206,"822033","Glen Cove Pkwy & Bermuda Ln",38.077960,-122.210791,"http://soltrans.connexionz.net/RTT/Public/Transit.aspx?page=text&plt=206",1,,
207,"822030","Glen Cove Pkwy & Camino Del Sol",38.070867,-122.210321,"http://soltrans.connexionz.net/RTT/Public/Transit.aspx?page=text&plt=207",1,,
208,"822029","Glen Cove Pkwy & Glen Cove Marina Rd",38.071244,-122.213099,"http://soltrans.connexionz.net/RTT/Public/Transit.aspx?page=text&plt=208",1,,
209,"822021","Glen Cove Pkwy & Glen Cove Marina Rd",38.071395,-122.213062,"http://soltrans.connexionz.net/RTT/Public/Transit.aspx?page=text&plt=209",1,,
210,"822023","Glen Cove Pkwy & James River Rd",38.071671,-122.218815,"http://soltrans.connexionz.net/RTT/Public/Transit.aspx?page=text&plt=210",1,,
211,"822027","Glen Cove Pkwy & James River",38.071666,-122.219063,"http://soltrans.connexionz.net/RTT/Public/Transit.aspx?page=text&plt=211",1,,
212,"822022","Glen Cove Pkwy & Mistral Way",38.071232,-122.217685,"http://soltrans.connexionz.net/RTT/Public/Transit.aspx?page=text&plt=212",1,,
213,"822032","Glen Cove Elementary & N Regatta Dr",38.074834,-122.206660,"http://soltrans.connexionz.net/RTT/Public/Transit.aspx?page=text&plt=213",1,,
214,"822019","Glen Cove Elementary & N Regetta Dr",38.073827,-122.206939,"http://soltrans.connexionz.net/RTT/Public/Transit.aspx?page=text&plt=214",1,,
215,"822016","Glen Cove Pkwy & Robles Way",38.084485,-122.211924,"http://soltrans.connexionz.net/RTT/Public/Transit.aspx?page=text&plt=215",1,,
216,"822031","Glen Cove Pkwy & S Regatta Dr",38.072690,-122.207856,"http://soltrans.connexionz.net/RTT/Public/Transit.aspx?page=text&plt=216",1,,
217,"822018","Glen Cove Pkwy & Saybrook Way",38.077723,-122.210977,"http://soltrans.connexionz.net/RTT/Public/Transit.aspx?page=text&plt=217",1,,
218,"822024","Glen Cove Pkwy & Sea Lion Pl",38.071024,-122.221764,"http://soltrans.connexionz.net/RTT/Public/Transit.aspx?page=text&plt=218",1,,
219,"822026","Glen Cove Pkwy & Sea Lion Pl",38.071132,-122.221539,"http://soltrans.connexionz.net/RTT/Public/Transit.aspx?page=text&plt=219",1,,
220,"822034","Glen Cove Pkwy & Wellfleet Dr",38.079371,-122.211180,"http://soltrans.connexionz.net/RTT/Public/Transit.aspx?page=text&plt=220",1,,
221,"822017","Glen Cove Pkwy & Wellfleet Dr",38.079184,-122.211439,"http://soltrans.connexionz.net/RTT/Public/Transit.aspx?page=text&plt=221",1,,
222,"825031","Griffin Dr & Taper Ave",38.146697,-122.234754,"http://soltrans.connexionz.net/RTT/Public/Transit.aspx?page=text&plt=222",1,,
223,"826025","Hastings Dr & Rose Dr",38.084578,-122.168157,"http://soltrans.connexionz.net/RTT/Public/Transit.aspx?page=text&plt=223",1,,
224,"826035","Hastings Dr & Joe Henderson Elementary",38.082666,-122.171076,"http://soltrans.connexionz.net/RTT/Public/Transit.aspx?page=text&plt=224",1,,
225,"826034","Hastings Dr & Cambridge Dr",38.077199,-122.176453,"http://soltrans.connexionz.net/RTT/Public/Transit.aspx?page=text&plt=225",1,,
227,"825012","Jack London Dr & Susan St",38.146970,-122.264534,"http://soltrans.connexionz.net/RTT/Public/Transit.aspx?page=text&plt=227",1,,
229,"822085","E 40 Way & Gary Cir",38.085556,-122.230278,"http://soltrans.connexionz.net/RTT/Public/Transit.aspx?page=text&plt=229",1,,
230,"821020","E 40 Way & Sheridan St",38.084056,-122.235903,"http://soltrans.connexionz.net/RTT/Public/Transit.aspx?page=text&plt=230",1,,
231,"821116","Maine St & Alameda St",38.098928,-122.247607,"http://soltrans.connexionz.net/RTT/Public/Transit.aspx?page=text&plt=231",1,,
232,"821081","Maine St & El Dorado St",38.098963,-122.249620,"http://soltrans.connexionz.net/RTT/Public/Transit.aspx?page=text&plt=232",1,,
233,"821080","Maine St & Napa St",38.098989,-122.251343,"http://soltrans.connexionz.net/RTT/Public/Transit.aspx?page=text&plt=233",1,,
234,"821079","Maine St & Sutter St",38.099008,-122.253542,"http://soltrans.connexionz.net/RTT/Public/Transit.aspx?page=text&plt=234",1,,
237,"821069","Mare Island Way & Florida St",38.105441,-122.265898,"http://soltrans.connexionz.net/RTT/Public/Transit.aspx?page=text&plt=237",1,,
238,"821089","Mare Island Way & Florida St",38.105340,-122.266141,"http://soltrans.connexionz.net/RTT/Public/Transit.aspx?page=text&plt=238",1,,
239,"821090","Mare Island Way & Georgia St (Ferry)",38.100160,-122.262375,"http://soltrans.connexionz.net/RTT/Public/Transit.aspx?page=text&plt=239",1,,
241,"821088","Mare Island Way & Harbor Way",38.107688,-122.265753,"http://soltrans.connexionz.net/RTT/Public/Transit.aspx?page=text&plt=241",1,,
242,"823065","Mare Island Way & Tennessee St",38.110507,-122.264556,"http://soltrans.connexionz.net/RTT/Public/Transit.aspx?page=text&plt=242",1,,
244,"825011","Meadows Dr & Sandpiper Dr",38.148105,-122.268479,"http://soltrans.connexionz.net/RTT/Public/Transit.aspx?page=text&plt=244",1,,
245,"825009","Meadows Dr & Severus Dr",38.150644,-122.273462,"http://soltrans.connexionz.net/RTT/Public/Transit.aspx?page=text&plt=245",1,,
246,"826008","Military W & 1st St (Benicia City Park)",38.054060,-122.155877,"http://soltrans.connexionz.net/RTT/Public/Transit.aspx?page=text&plt=246",1,,
247,"826005","Military W & 1st St (Benicia City Park)",38.054090,-122.156456,"http://soltrans.connexionz.net/RTT/Public/Transit.aspx?page=text&plt=247",1,,
248,"826017","Military W & Benicia High School",38.064285,-122.175772,"http://soltrans.connexionz.net/RTT/Public/Transit.aspx?page=text&plt=248",1,,
249,"826016","Military W & Mary Farmar Elementary",38.062011,-122.171886,"http://soltrans.connexionz.net/RTT/Public/Transit.aspx?page=text&plt=249",1,,
250,"826002","Military W & W 14th",38.067552,-122.181510,"http://soltrans.connexionz.net/RTT/Public/Transit.aspx?page=text&plt=250",1,,
252,"826003","Military West & West 7th",38.058700,-122.166115,"http://soltrans.connexionz.net/RTT/Public/Transit.aspx?page=text&plt=252",1,,
253,"826004","Military W & W 7th",38.058531,-122.166207,"http://soltrans.connexionz.net/RTT/Public/Transit.aspx?page=text&plt=253",1,,
254,"825006","Mini Dr & Coloma Way",38.151795,-122.265717,"http://soltrans.connexionz.net/RTT/Public/Transit.aspx?page=text&plt=254",1,,
255,"825024","Mini Dr & Corcoran Ave",38.150348,-122.245991,"http://soltrans.connexionz.net/RTT/Public/Transit.aspx?page=text&plt=255",1,,
257,"825004","Mini Dr & Elliott Dr",38.152793,-122.257797,"http://soltrans.connexionz.net/RTT/Public/Transit.aspx?page=text&plt=257",1,,
259,"825005","Mini Dr & Roleen Dr",38.151964,-122.260739,"http://soltrans.connexionz.net/RTT/Public/Transit.aspx?page=text&plt=259",1,,
260,"825007","Mini Dr & Severus Dr",38.153733,-122.268902,"http://soltrans.connexionz.net/RTT/Public/Transit.aspx?page=text&plt=260",1,,
261,"825003","Mini Dr & Sonoma Blvd (Rancho Square)",38.153998,-122.254932,"http://soltrans.connexionz.net/RTT/Public/Transit.aspx?page=text&plt=261",1,,
265,"825023","Mini Dr & Whitney Ave",38.147416,-122.245732,"http://soltrans.connexionz.net/RTT/Public/Transit.aspx?page=text&plt=265",1,,
267,"826031","Panorama Dr & Essex Way",38.075060,-122.162058,"http://soltrans.connexionz.net/RTT/Public/Transit.aspx?page=text&plt=267",1,,
268,"824045","Plaza Dr & Admiral Callaghan Ln",38.133977,-122.217908,"http://soltrans.connexionz.net/RTT/Public/Transit.aspx?page=text&plt=268",1,,
269,"824006","Plaza Dr & Turner Pkwy (Gateway Plaza)",38.132774,-122.216772,"http://soltrans.connexionz.net/RTT/Public/Transit.aspx?page=text&plt=269",1,,
270,"824026","Plaza Dr & Turner Pkwy (Gateway Plaza)",38.132384,-122.215714,"http://soltrans.connexionz.net/RTT/Public/Transit.aspx?page=text&plt=270",1,,
271,"821025","Porter St & Grace Patterson Elementary",38.080492,-122.238591,"http://soltrans.connexionz.net/RTT/Public/Transit.aspx?page=text&plt=271",1,,
273,"821026","Porter St & Magazine St (Norman King)",38.081518,-122.239855,"http://soltrans.connexionz.net/RTT/Public/Transit.aspx?page=text&plt=273",1,,
276,"824034","Redwood Pkwy & Bonnie Way",38.130981,-122.201232,"http://soltrans.connexionz.net/RTT/Public/Transit.aspx?page=text&plt=276",1,,
280,"824035","Redwood Pkwy & Headwater Dr",38.127935,-122.203934,"http://soltrans.connexionz.net/RTT/Public/Transit.aspx?page=text&plt=280",1,,
284,"823092","Redwood St & Sonoma Blvd & Sacramento St",38.123290,-122.259429,"http://soltrans.connexionz.net/RTT/Public/Transit.aspx?page=text&plt=284",1,,
285,"823072","Redwood St & Sacramento St",38.122360,-122.261535,"http://soltrans.connexionz.net/RTT/Public/Transit.aspx?page=text&plt=285",1,,
286,"823073","Redwood St & Sonoma Blvd (Seafood City)",38.123163,-122.258767,"http://soltrans.connexionz.net/RTT/Public/Transit.aspx?page=text&plt=286",1,,
287,"823087","Redwood St & Tuolumne St",38.122340,-122.237320,"http://soltrans.connexionz.net/RTT/Public/Transit.aspx?page=text&plt=287",1,,
288,"823076","Redwood St & Tuolumne St",38.122219,-122.235825,"http://soltrans.connexionz.net/RTT/Public/Transit.aspx?page=text&plt=288",1,,
289,"822036","Rollingwood Dr & Benicia Rd",38.090143,-122.208101,"http://soltrans.connexionz.net/RTT/Public/Transit.aspx?page=text&plt=289",1,,
290,"822089","Rollingwood Dr & Cottonwood Dr",38.102752,-122.209089,"http://soltrans.connexionz.net/RTT/Public/Transit.aspx?page=text&plt=290",1,,
292,"822088","Rollingwood Dr & Springs Rd",38.105209,-122.208960,"http://soltrans.connexionz.net/RTT/Public/Transit.aspx?page=text&plt=292",1,,
293,"826018","Rose Dr & Cambridge Dr",38.081481,-122.189778,"http://soltrans.connexionz.net/RTT/Public/Transit.aspx?page=text&plt=293",1,,
294,"826029","Rose Dr & Corcoran Ct",38.088642,-122.184911,"http://soltrans.connexionz.net/RTT/Public/Transit.aspx?page=text&plt=294",1,,
295,"826036","Rose Dr & Matthew Turner Elementary",38.083934,-122.158884,"http://soltrans.connexionz.net/RTT/Public/Transit.aspx?page=text&plt=295",1,,
296,"826026","Rose Dr & Panorama Dr",38.079900,-122.152360,"http://soltrans.connexionz.net/RTT/Public/Transit.aspx?page=text&plt=296",1,,
297,"826019","Rose Dr & Windsor Dr",38.087320,-122.173210,"http://soltrans.connexionz.net/RTT/Public/Transit.aspx?page=text&plt=297",1,,
298,"821034","Sacramento St & Alabama St",38.108927,-122.258018,"http://soltrans.connexionz.net/RTT/Public/Transit.aspx?page=text&plt=298",1,,
299,"821035","Sacramento St & Alabama St",38.109164,-122.258218,"http://soltrans.connexionz.net/RTT/Public/Transit.aspx?page=text&plt=299",1,,
300,"823071","Sacramento St & Baldwin St",38.123736,-122.263849,"http://soltrans.connexionz.net/RTT/Public/Transit.aspx?page=text&plt=300",1,,
301,"823037","Sacramento St & Denio St",38.115943,-122.258054,"http://soltrans.connexionz.net/RTT/Public/Transit.aspx?page=text&plt=301",1,,
302,"821036","Sacramento St & Florida  Saint Vincent",38.104869,-122.258307,"http://soltrans.connexionz.net/RTT/Public/Transit.aspx?page=text&plt=302",1,,
303,"821102","Sacramento St & Florida  Saint Vincent",38.105360,-122.258097,"http://soltrans.connexionz.net/RTT/Public/Transit.aspx?page=text&plt=303",1,,
304,"823038","Sacramento St & Hichborn St",38.113359,-122.258102,"http://soltrans.connexionz.net/RTT/Public/Transit.aspx?page=text&plt=304",1,,
305,"823023","Sacramento St & Indiana St",38.111262,-122.257968,"http://soltrans.connexionz.net/RTT/Public/Transit.aspx?page=text&plt=305",1,,
306,"823024","Sacramento St & Mississippi St",38.115314,-122.257870,"http://soltrans.connexionz.net/RTT/Public/Transit.aspx?page=text&plt=306",1,,
308,"823093","Sacramento St & Redwood St",38.122634,-122.262623,"http://soltrans.connexionz.net/RTT/Public/Transit.aspx?page=text&plt=308",1,,
310,"823036","Sacramento St & Valle Vista Ave",38.118918,-122.259609,"http://soltrans.connexionz.net/RTT/Public/Transit.aspx?page=text&plt=310",1,,
311,"821037","Sacramento St & Virginia St",38.101750,-122.258375,"http://soltrans.connexionz.net/RTT/Public/Transit.aspx?page=text&plt=311",1,,
312,"821032","Sacramento St & Virginia St",38.101936,-122.258191,"http://soltrans.connexionz.net/RTT/Public/Transit.aspx?page=text&plt=312",1,,
313,"825034","Sage St & Griffin Dr",38.141795,-122.227523,"http://soltrans.connexionz.net/RTT/Public/Transit.aspx?page=text&plt=313",1,,
315,"821065","Santa Clara St & City Hall & JFK Library",38.102328,-122.260039,"http://soltrans.connexionz.net/RTT/Public/Transit.aspx?page=text&plt=315",1,,
318,"826023","W Seaview Dr & Golden Hill Way",38.062735,-122.150697,"http://soltrans.connexionz.net/RTT/Public/Transit.aspx?page=text&plt=318",1,,
321,"823056","Sereno Dr & Kaiser Entrance",38.128161,-122.248622,"http://soltrans.connexionz.net/RTT/Public/Transit.aspx?page=text&plt=321",1,,
323,"823057","Sereno Dr & Mesa Verde St",38.128663,-122.243448,"http://soltrans.connexionz.net/RTT/Public/Transit.aspx?page=text&plt=323",1,,
324,"823123","Sereno Dr & San Marino Ave",38.128925,-122.242119,"http://soltrans.connexionz.net/RTT/Public/Transit.aspx?page=text&plt=324",1,,
325,"823128","Sereno Transit Center (STC C)",38.127794,-122.253413,"http://soltrans.connexionz.net/RTT/Public/Transit.aspx?page=text&plt=325",1,,580
327,"825008","Severus Dr & Catalina Way",38.152938,-122.271730,"http://soltrans.connexionz.net/RTT/Public/Transit.aspx?page=text&plt=327",1,,
328,"826030","Solano Ave & Hastings Dr",38.080133,-122.171540,"http://soltrans.connexionz.net/RTT/Public/Transit.aspx?page=text&plt=328",1,,
329,"825001","Sonoma Blvd & Hwy 37",38.136026,-122.255984,"http://soltrans.connexionz.net/RTT/Public/Transit.aspx?page=text&plt=329",1,,
330,"826020","Solano Dr & Larkin Dr",38.075673,-122.167494,"http://soltrans.connexionz.net/RTT/Public/Transit.aspx?page=text&plt=330",1,,
334,"821060","Sonoma Blvd & Florida St (Lincoln Elem)",38.104495,-122.254778,"http://soltrans.connexionz.net/RTT/Public/Transit.aspx?page=text&plt=334",1,,
335,"821029","Sonoma Blvd & McLane St",38.088967,-122.244404,"http://soltrans.connexionz.net/RTT/Public/Transit.aspx?page=text&plt=335",1,,
336,"825002","Sonoma Blvd & Meadows Dr",38.147368,-122.254705,"http://soltrans.connexionz.net/RTT/Public/Transit.aspx?page=text&plt=336",1,,
337,"823008","Sonoma Blvd & Redwood St (Vallejo Plaza)",38.124496,-122.255129,"http://soltrans.connexionz.net/RTT/Public/Transit.aspx?page=text&plt=337",1,,
338,"823015","Sonoma Blvd & Redwood St (Vallejo Plaza)",38.124119,-122.255558,"http://soltrans.connexionz.net/RTT/Public/Transit.aspx?page=text&plt=338",1,,
340,"823016","Sonoma Blvd & Redwood St (Vallejo Plaza)",38.122447,-122.255417,"http://soltrans.connexionz.net/RTT/Public/Transit.aspx?page=text&plt=340",1,,
341,"821031","Sonoma Blvd & Solano Ave",38.094907,-122.251606,"http://soltrans.connexionz.net/RTT/Public/Transit.aspx?page=text&plt=341",1,,
343,"821028","Sonoma Blvd & Winchester St",38.086405,-122.242054,"http://soltrans.connexionz.net/RTT/Public/Transit.aspx?page=text&plt=343",1,,
344,"823010","Sonoma Blvd & Yolano Dr (Park Place)",38.132719,-122.255832,"http://soltrans.connexionz.net/RTT/Public/Transit.aspx?page=text&plt=344",1,,
345,"826012","Southampton Rd & Chelsea Hills Dr",38.066852,-122.166492,"http://soltrans.connexionz.net/RTT/Public/Transit.aspx?page=text&plt=345",1,,
346,"826010","Southampton Rd & Hastings Dr",38.070573,-122.178260,"http://soltrans.connexionz.net/RTT/Public/Transit.aspx?page=text&plt=346",1,,
347,"826011","Southampton Rd & Benicia Middle School",38.069397,-122.172112,"http://soltrans.connexionz.net/RTT/Public/Transit.aspx?page=text&plt=347",1,,
348,"822054","Springs Rd & Avian Dr (Springhill)",38.106008,-122.207367,"http://soltrans.connexionz.net/RTT/Public/Transit.aspx?page=text&plt=348",1,,
349,"822081","Springs Rd & Heartwood Ave",38.105879,-122.211179,"http://soltrans.connexionz.net/RTT/Public/Transit.aspx?page=text&plt=349",1,,
350,"822055","Springs Rd & Heartwood Ave",38.106038,-122.211107,"http://soltrans.connexionz.net/RTT/Public/Transit.aspx?page=text&plt=350",1,,
351,"822077","Springs Rd & Hilton Ave",38.105999,-122.226797,"http://soltrans.connexionz.net/RTT/Public/Transit.aspx?page=text&plt=351",1,,
352,"822060","Springs Rd & Humboldt St",38.106172,-122.227838,"http://soltrans.connexionz.net/RTT/Public/Transit.aspx?page=text&plt=352",1,,
354,"822056","Springs Rd & Mosswood Ave",38.106064,-122.214509,"http://soltrans.connexionz.net/RTT/Public/Transit.aspx?page=text&plt=354",1,,
355,"822057","Springs Rd & Oakwood Ave",38.106097,-122.218572,"http://soltrans.connexionz.net/RTT/Public/Transit.aspx?page=text&plt=355",1,,
356,"822080","Springs Rd & Oakwood Ave (Springstowne)",38.105918,-122.215646,"http://soltrans.connexionz.net/RTT/Public/Transit.aspx?page=text&plt=356",1,,
357,"822082","Springs Rd & Rollingwood Dr (Springhill)",38.105849,-122.207292,"http://soltrans.connexionz.net/RTT/Public/Transit.aspx?page=text&plt=357",1,,
358,"822079","Springs Rd & Thelma Ave",38.105946,-122.219578,"http://soltrans.connexionz.net/RTT/Public/Transit.aspx?page=text&plt=358",1,,
359,"822059","Springs Rd & Vervais Ave",38.106152,-122.224915,"http://soltrans.connexionz.net/RTT/Public/Transit.aspx?page=text&plt=359",1,,
360,"822078","Springs Rd & Vervais Ave",38.105980,-122.224007,"http://soltrans.connexionz.net/RTT/Public/Transit.aspx?page=text&plt=360",1,,
361,"826015","1st St & Military W (Veterans Building)",38.053815,-122.155584,"http://soltrans.connexionz.net/RTT/Public/Transit.aspx?page=text&plt=361",1,,
362,"823081","Tennessee St & Amador St",38.109904,-122.242785,"http://soltrans.connexionz.net/RTT/Public/Transit.aspx?page=text&plt=362",1,,
363,"823083","Tennessee St & Broadway St",38.109989,-122.248413,"http://soltrans.connexionz.net/RTT/Public/Transit.aspx?page=text&plt=363",1,,
367,"824014","Tennessee St & Maple Ave",38.109720,-122.221418,"http://soltrans.connexionz.net/RTT/Public/Transit.aspx?page=text&plt=367",1,,
368,"823077","Tennessee St & Mariposa St",38.109751,-122.231715,"http://soltrans.connexionz.net/RTT/Public/Transit.aspx?page=text&plt=368",1,,
371,"823078","Tennessee St & Shasta St",38.109806,-122.235039,"http://soltrans.connexionz.net/RTT/Public/Transit.aspx?page=text&plt=371",1,,
372,"823085","Tennessee St & Sutter St",38.110052,-122.252932,"http://soltrans.connexionz.net/RTT/Public/Transit.aspx?page=text&plt=372",1,,
373,"823079","Tennessee St & Tuolumne St",38.109844,-122.238795,"http://soltrans.connexionz.net/RTT/Public/Transit.aspx?page=text&plt=373",1,,
378,"825014","Tobin Dr & Donnor Pass Rd",38.144916,-122.260658,"http://soltrans.connexionz.net/RTT/Public/Transit.aspx?page=text&plt=378",1,,
379,"823029","Tuolumne St & Broadway St",38.136240,-122.251602,"http://soltrans.connexionz.net/RTT/Public/Transit.aspx?page=text&plt=379",1,,
381,"821058","Tuolumne St & Capitol St (Courthouse)",38.103370,-122.238312,"http://soltrans.connexionz.net/RTT/Public/Transit.aspx?page=text&plt=381",1,,
382,"821055","Tuolumne St & Carolina St (Courthouse)",38.103634,-122.238121,"http://soltrans.connexionz.net/RTT/Public/Transit.aspx?page=text&plt=382",1,,
383,"823046","Tuolumne St & Del Mar Ave",38.125686,-122.238213,"http://soltrans.connexionz.net/RTT/Public/Transit.aspx?page=text&plt=383",1,,
384,"823058","Tuolumne St & Del Mar Ave",38.126007,-122.238509,"http://soltrans.connexionz.net/RTT/Public/Transit.aspx?page=text&plt=384",1,,
385,"823042","Tuolumne St & Fleming Ave",38.115971,-122.237897,"http://soltrans.connexionz.net/RTT/Public/Transit.aspx?page=text&plt=385",1,,
387,"823048","Tuolumne St & Hospital Dr",38.130668,-122.240345,"http://soltrans.connexionz.net/RTT/Public/Transit.aspx?page=text&plt=387",1,,
389,"823059","Tuolumne St & Los Santos Ct",38.121398,-122.238244,"http://soltrans.connexionz.net/RTT/Public/Transit.aspx?page=text&plt=389",1,,
391,"823063","Tuolumne St & Nebraska St",38.113659,-122.238206,"http://soltrans.connexionz.net/RTT/Public/Transit.aspx?page=text&plt=391",1,,
392,"823041","Tuolumne St & Nebraska St",38.113921,-122.238077,"http://soltrans.connexionz.net/RTT/Public/Transit.aspx?page=text&plt=392",1,,
393,"821056","Tuolumne St & Ohio St",38.106881,-122.238080,"http://soltrans.connexionz.net/RTT/Public/Transit.aspx?page=text&plt=393",1,,
394,"823052","Tuolumne St & Parkview Ter",38.134846,-122.243219,"http://soltrans.connexionz.net/RTT/Public/Transit.aspx?page=text&plt=394",1,,
395,"823054","Tuolumne St & Peach St",38.136724,-122.247644,"http://soltrans.connexionz.net/RTT/Public/Transit.aspx?page=text&plt=395",1,,
397,"823045","Tuolumne St & Redwood Tuolumne Center",38.123111,-122.237641,"http://soltrans.connexionz.net/RTT/Public/Transit.aspx?page=text&plt=397",1,,
399,"821057","Tuolumne St & Springs Rd",38.105834,-122.238277,"http://soltrans.connexionz.net/RTT/Public/Transit.aspx?page=text&plt=399",1,,
400,"823064","Tuolumne St & Tennessee St",38.110002,-122.238256,"http://soltrans.connexionz.net/RTT/Public/Transit.aspx?page=text&plt=400",1,,
401,"823040","Tuolumne St & Tennessee St",38.110301,-122.238035,"http://soltrans.connexionz.net/RTT/Public/Transit.aspx?page=text&plt=401",1,,
402,"823060","Tuolumne St & Valle Vista Ave",38.118726,-122.238370,"http://soltrans.connexionz.net/RTT/Public/Transit.aspx?page=text&plt=402",1,,
403,"823044","Tuolumne St & Valle Vista Ave",38.119372,-122.238284,"http://soltrans.connexionz.net/RTT/Public/Transit.aspx?page=text&plt=403",1,,
408,"824016","Vervais Ave & Henry St",38.112585,-122.224662,"http://soltrans.connexionz.net/RTT/Public/Transit.aspx?page=text&plt=408",1,,
409,"826022","Warwick Dr & Chelsea Hills Dr",38.066617,-122.163148,"http://soltrans.connexionz.net/RTT/Public/Transit.aspx?page=text&plt=409",1,,
410,"826032","Warwick Dr & Sunrise Ct",38.063860,-122.153432,"http://soltrans.connexionz.net/RTT/Public/Transit.aspx?page=text&plt=410",1,,
411,"825037","Whitney Ave & De Paul Dr",38.146133,-122.237963,"http://soltrans.connexionz.net/RTT/Public/Transit.aspx?page=text&plt=411",1,,
412,"825038","Whitney Ave & Olympic Dr",38.146486,-122.243258,"http://soltrans.connexionz.net/RTT/Public/Transit.aspx?page=text&plt=412",1,,
413,"823118","Wilson Ave & B St",38.114527,-122.268191,"http://soltrans.connexionz.net/RTT/Public/Transit.aspx?page=text&plt=413",1,,
415,"823096","Wilson Ave & Benson Ave",38.116431,-122.270151,"http://soltrans.connexionz.net/RTT/Public/Transit.aspx?page=text&plt=415",1,,
416,"823097","Wilson Ave & Hichborn St",38.113795,-122.267587,"http://soltrans.connexionz.net/RTT/Public/Transit.aspx?page=text&plt=416",1,,
417,"823099","Mare Island Way & Tennessee St",38.110834,-122.265120,"http://soltrans.connexionz.net/RTT/Public/Transit.aspx?page=text&plt=417",1,,
420,"823141","Tuolumne St & Mitchell Ct",38.135612,-122.243819,"http://soltrans.connexionz.net/RTT/Public/Transit.aspx?page=text&plt=420",1,,
421,"823140","Tuolumne St & Peach St",38.136578,-122.247085,"http://soltrans.connexionz.net/RTT/Public/Transit.aspx?page=text&plt=421",1,,
422,"822094","Benicia Rd & Banning Way",38.091619,-122.216036,"http://soltrans.connexionz.net/RTT/Public/Transit.aspx?page=text&plt=422",1,,
427,"823142","Tuolumne St & Parkview Ter",38.134205,-122.242863,"http://soltrans.connexionz.net/RTT/Public/Transit.aspx?page=text&plt=427",1,,
429,"823129","Tuolumne St & Sereno Dr",38.128705,-122.239127,"http://soltrans.connexionz.net/RTT/Public/Transit.aspx?page=text&plt=429",1,,
430,"823130","Tuolumne St & Sereno Dr",38.128786,-122.238915,"http://soltrans.connexionz.net/RTT/Public/Transit.aspx?page=text&plt=430",1,,
431,"823117","Sereno Dr & Kaiser Entrance",38.128170,-122.249677,"http://soltrans.connexionz.net/RTT/Public/Transit.aspx?page=text&plt=431",1,,
433,"823131","Tennessee St & Sutter St",38.109882,-122.252798,"http://soltrans.connexionz.net/RTT/Public/Transit.aspx?page=text&plt=433",1,,
434,"823132","Tennessee St & El Dorado St",38.109842,-122.249888,"http://soltrans.connexionz.net/RTT/Public/Transit.aspx?page=text&plt=434",1,,
435,"823133","Tennessee St & Monterey St",38.109790,-122.245932,"http://soltrans.connexionz.net/RTT/Public/Transit.aspx?page=text&plt=435",1,,
436,"823134","Tennessee St & Amador St",38.109757,-122.243829,"http://soltrans.connexionz.net/RTT/Public/Transit.aspx?page=text&plt=436",1,,
437,"823135","Tennessee St & Tuolumne St",38.109665,-122.237610,"http://soltrans.connexionz.net/RTT/Public/Transit.aspx?page=text&plt=437",1,,
438,"823136","Tennessee St & Mariposa St",38.109578,-122.231540,"http://soltrans.connexionz.net/RTT/Public/Transit.aspx?page=text&plt=438",1,,
439,"823137","Fleming Ave & Admiral Callaghan Ln",38.117195,-122.229147,"http://soltrans.connexionz.net/RTT/Public/Transit.aspx?page=text&plt=439",1,,
440,"824046","Fleming Ave & Vervais Ave",38.115113,-122.223834,"http://soltrans.connexionz.net/RTT/Public/Transit.aspx?page=text&plt=440",1,,
441,"824047","Vervais Ave & Henry St",38.111969,-122.224755,"http://soltrans.connexionz.net/RTT/Public/Transit.aspx?page=text&plt=441",1,,
442,"824048","Tennessee St & Maple Ave",38.109586,-122.221374,"http://soltrans.connexionz.net/RTT/Public/Transit.aspx?page=text&plt=442",1,,
443,"824049","Tennessee St & Oakwood Ave",38.109539,-122.218216,"http://soltrans.connexionz.net/RTT/Public/Transit.aspx?page=text&plt=443",1,,
444,"821038","Florida St & Alameda St",38.104867,-122.247806,"http://soltrans.connexionz.net/RTT/Public/Transit.aspx?page=text&plt=444",1,,
445,"821039","Florida St & Amador St",38.104804,-122.243795,"http://soltrans.connexionz.net/RTT/Public/Transit.aspx?page=text&plt=445",1,,
446,"824023","Ascot Pkwy & Wardlaw Park East",38.118975,-122.206344,"http://soltrans.connexionz.net/RTT/Public/Transit.aspx?page=text&plt=446",1,,
447,"824044","Admiral Callaghan Way & Rotary Way",38.126352,-122.227629,"http://soltrans.connexionz.net/RTT/Public/Transit.aspx?page=text&plt=447",1,,
448,"822038","Rollingwood Dr & Keats Dr",38.095295,-122.208562,"http://soltrans.connexionz.net/RTT/Public/Transit.aspx?page=text&plt=448",1,,
449,"822091","Rollingwood Dr & Springs Rd",38.105211,-122.209098,"http://soltrans.connexionz.net/RTT/Public/Transit.aspx?page=text&plt=449",1,,
450,"822092","Rollingwood Dr & Baywood Dr",38.098526,-122.209405,"http://soltrans.connexionz.net/RTT/Public/Transit.aspx?page=text&plt=450",1,,
451,"822093","Rollingwood Dr & Dryden Dr",38.093950,-122.208708,"http://soltrans.connexionz.net/RTT/Public/Transit.aspx?page=text&plt=451",1,,
452,"822095","Benicia Rd & Home Acres Ave",38.092195,-122.218565,"http://soltrans.connexionz.net/RTT/Public/Transit.aspx?page=text&plt=452",1,,
453,"822096","Benicia Rd & Maple Ave",38.093078,-122.222181,"http://soltrans.connexionz.net/RTT/Public/Transit.aspx?page=text&plt=453",1,,
454,"822097","Benicia Rd & Cedar St",38.093930,-122.225992,"http://soltrans.connexionz.net/RTT/Public/Transit.aspx?page=text&plt=454",1,,
455,"821118","Benicia Rd & Carquinez St",38.095441,-122.232694,"http://soltrans.connexionz.net/RTT/Public/Transit.aspx?page=text&plt=455",1,,
456,"821119","Benicia Rd & Beach St",38.096685,-122.238174,"http://soltrans.connexionz.net/RTT/Public/Transit.aspx?page=text&plt=456",1,,
457,"821120","Benicia Rd & Solano Ave",38.098107,-122.242456,"http://soltrans.connexionz.net/RTT/Public/Transit.aspx?page=text&plt=457",1,,
458,"821121","Maine St & Alameda St",38.099097,-122.248079,"http://soltrans.connexionz.net/RTT/Public/Transit.aspx?page=text&plt=458",1,,
459,"821122","Maine St & Sonoma Blvd",38.099190,-122.254512,"http://soltrans.connexionz.net/RTT/Public/Transit.aspx?page=text&plt=459",1,,
460,"827004","Contra Costa Blvd & Viking Dr (Sunvalley)",37.967778,-122.062690,"http://soltrans.connexionz.net/RTT/Public/Transit.aspx?page=text&plt=460",3,,
461,"827006","Contra Costa Blvd & Viking Dr",37.967470,-122.062907,"http://soltrans.connexionz.net/RTT/Public/Transit.aspx?page=text&plt=461",3,,
462,"829014","Suisun Valley Rd & Westamerica Dr (SCC Fairfield)",38.229497,-122.129055,"http://soltrans.connexionz.net/RTT/Public/Transit.aspx?page=text&plt=462",2,,
465,"824052","Redwood Pkwy & Rocky Shore Dr",38.124761,-122.205439,"http://soltrans.connexionz.net/RTT/Public/Transit.aspx?page=text&plt=465",1,,
466,"823115","Valle Vista Ave & Sonoma Blvd",38.119772,-122.256651,"http://soltrans.connexionz.net/RTT/Public/Transit.aspx?page=text&plt=466",1,,
467,"823035","Valle Vista Ave & Sonoma Blvd",38.119936,-122.256275,"http://soltrans.connexionz.net/RTT/Public/Transit.aspx?page=text&plt=467",1,,
473,"824051","Columbus Pkwy & St Johns Mine Rd (SCC)",38.136390,-122.203404,"http://soltrans.connexionz.net/RTT/Public/Transit.aspx?page=text&plt=473",1,,
474,"824050","Columbus Pkwy & Ascot Pkwy",38.112406,-122.198310,"http://soltrans.connexionz.net/RTT/Public/Transit.aspx?page=text&plt=474",1,,
475,"823143","Tuolumne St & Hospital Dr",38.131043,-122.240896,"http://soltrans.connexionz.net/RTT/Public/Transit.aspx?page=text&plt=475",1,,
476,"821068","Mare Island Way & Georgia St (Ferry)",38.100467,-122.262277,"http://soltrans.connexionz.net/RTT/Public/Transit.aspx?page=text&plt=476",1,,
477,"821001","Vallejo Transit Center (VTC West)",38.100219,-122.259190,"http://soltrans.connexionz.net/RTT/Public/Transit.aspx?page=text&plt=477",1,,581
480,"828001","El Cerrito del Norte BART",37.924996,-122.317128,"http://soltrans.connexionz.net/RTT/Public/Transit.aspx?page=text&plt=480",3,,
487,"823112","Sereno Transit Center (STC B)",38.127994,-122.253429,"http://soltrans.connexionz.net/RTT/Public/Transit.aspx?page=text&plt=487",1,,580
491,"823104","Hwy 37 EB & Fairgrounds Dr (Six Flags)",38.140999,-122.231553,"http://soltrans.connexionz.net/RTT/Public/Transit.aspx?page=text&plt=491",1,,
494,"823103","Hwy 37 WB & Fairgrounds Dr (Six Flags)",38.141743,-122.233468,"http://soltrans.connexionz.net/RTT/Public/Transit.aspx?page=text&plt=494",1,,
495,"829015","Fairfield Transportation Center",38.249206,-122.068305,"http://soltrans.connexionz.net/RTT/Public/Transit.aspx?page=text&plt=495",2,,
496,"829023","Spring St & Suisun-Fairfield Amtrak",38.242765,-122.041606,"http://soltrans.connexionz.net/RTT/Public/Transit.aspx?page=text&plt=496",2,,
499,"825042","Mini Dr & Broadway St",38.154083,-122.251989,"http://soltrans.connexionz.net/RTT/Public/Transit.aspx?page=text&plt=499",1,,
500,"825041","Mini Dr & Sonoma Blvd",38.153980,-122.252052,"http://soltrans.connexionz.net/RTT/Public/Transit.aspx?page=text&plt=500",1,,
502,"823111","Sereno Transit Center (STC A)",38.128112,-122.253436,"http://soltrans.connexionz.net/RTT/Public/Transit.aspx?page=text&plt=502",1,,580
531,"827002","Walnut Creek BART",37.905798,-122.068892,"http://soltrans.connexionz.net/RTT/Public/Transit.aspx?page=text&plt=531",3,,
540,"821040","Tennessee St & Marin St (EDD)",38.109932,-122.256027,"http://soltrans.connexionz.net/RTT/Public/Transit.aspx?page=text&plt=540",1,,
544,"822099","E 40 Way & Lincoln Rd E",38.084922,-122.231859,"http://soltrans.connexionz.net/RTT/Public/Transit.aspx?page=text&plt=544",1,,
545,"823026","Broadway St & Sereno Dr",38.128090,-122.251487,"http://soltrans.connexionz.net/RTT/Public/Transit.aspx?page=text&plt=545",1,,
546,"823034","Tuolumne St & Lofas Pl",38.136454,-122.250569,"http://soltrans.connexionz.net/RTT/Public/Transit.aspx?page=text&plt=546",1,,
553,"824056","Ascot Pkwy & Jesse Bethel High School",38.120368,-122.207811,"http://soltrans.connexionz.net/RTT/Public/Transit.aspx?page=text&plt=553",1,,
562,"826065","Benicia Park & Ride",38.068452,-122.128820,"http://soltrans.connexionz.net/RTT/Public/Transit.aspx?page=text&plt=562",1,,
563,"826066","Benicia Park & Ride",38.068443,-122.129038,"http://soltrans.connexionz.net/RTT/Public/Transit.aspx?page=text&plt=563",1,,
569,"829201","Dixon Park & Ride",38.455530,-121.842107,"http://soltrans.connexionz.net/RTT/Public/Transit.aspx?page=text&plt=569",3,,
571,"829101","Vacaville Transportation Center (VATC)",38.358265,-121.964686,"http://soltrans.connexionz.net/RTT/Public/Transit.aspx?page=text&plt=571",3,,
577,"829204","Mark Hall Dr & Alumni Ln (UC Davis Mondavi Center)",38.534450,-121.748434,"http://soltrans.connexionz.net/RTT/Public/Transit.aspx?page=text&plt=577",3,,
579,"829021","San Francisco Ferry Building",37.796127,-122.395237,"http://soltrans.connexionz.net/RTT/Public/Transit.aspx?page=text&plt=579",4,,
580,,"Sereno Transit Center",38.127967,-122.253426,,,1,
581,,"Vallejo Transit Center",38.100219,-122.259190,,,1,
